[
	{
		"location": "",
		"city": "All",
		"lists": []
	},
	{
		"city": "Singapore",
		"location": "Singapore, Singapore",
		"lists": [
		{
			"name": "Hugo Guerrero",
			"title": "Head of Technical Marketing at Kong",
			"img": "/img/london-speakers/Hugo Guerrero.webp"
		},
		{
			"name": "Naresh Jain",
			"title": "Founder & CEO at Specmatic",
			"img": "/img/paris-images/Naresh.webp"
		},
		{
			"name": "Lukasz Gornicki",
			"title": "Executive Director at AsyncAPI Initiative",
			"img": "/img/london-speakers/Lukasz Gornicki.webp"
		},
		{
			"name": "Ankit Kumar",
			"title": "Head of Developer and Customer Success at Aklivity",
			"img": "/img/london-speakers/Ankit.webp"
		}
	],
		"agenda": null
	},
	{
		"city": "Munich",
		"location": "Munich, Germany",
		"lists": [],
		"agenda": null
	},
	{
		"city": "Lagos",
		"location": "Lagos, Nigeria",
		"lists": [],
		"agenda": null
	},
	{
		"city": "London",
		"location": "London, UK",
		"lists": [],
		"agenda": null
	},
	{
		"city": "Suprise!",
		"location": "Suprise!",
		"lists": [],
		"agenda": null
	},
	{
		"city": "Online",
		"location": "AsyncAPI YouTube Channel",
		"lists": [],
		"agenda": null
	},
	{
		"city": "Paris",
		"location": "Paris, France",
		"lists": [],
		"agenda": null
	}

	
	
]
